{"type":"FeatureCollection","features":[{"type":"Feature","geometry":{"type":"Point","coordinates":[-3.187307,55.944494]},"properties":{"location":"only.fairly.rift","rgb-string":"#ffc000","marker-color":"#ffc000","marker-symbol":"danger"}},{"type":"Feature","geometry":{"type":"Point","coordinates":[-3.186296,55.945761]},"properties":{"location":"posts.kicked.universally","rgb-string":"#ff4000","marker-color":"#ff4000","marker-symbol":"danger"}},{"type":"Feature","geometry":{"type":"Point","coordinates":[-3.185236,55.944575]},"properties":{"location":"acid.chair.butter","rgb-string":"#ff8000","marker-color":"#ff8000","marker-symbol":"danger"}},{"type":"Feature","geometry":{"type":"Point","coordinates":[-3.186007,55.943901]},"properties":{"location":"teams.mild.played","rgb-string":"#ffc000","marker-color":"#ffc000","marker-symbol":"danger"}},{"type":"Feature","geometry":{"type":"Point","coordinates":[-3.188319,55.945518]},"properties":{"location":"skills.less.herb","rgb-string":"#000000","marker-color":"#000000","marker-symbol":"cross"}},{"type":"Feature","geometry":{"type":"Point","coordinates":[-3.187018,55.943982]},"properties":{"location":"renew.ears.tend","rgb-string":"#80ff00","marker-color":"#80ff00","marker-symbol":"lighthouse"}},{"type":"Feature","geometry":{"type":"Point","coordinates":[-3.184947,55.943443]},"properties":{"location":"sentences.sings.modern","rgb-string":"#ffc000","marker-color":"#ffc000","marker-symbol":"danger"}},{"type":"Feature","geometry":{"type":"Point","coordinates":[-3.191065,55.94444]},"properties":{"location":"paying.crowd.weep","rgb-string":"#40ff00","marker-color":"#40ff00","marker-symbol":"lighthouse"}},{"type":"Feature","geometry":{"type":"Point","coordinates":[-3.186729,55.945168]},"properties":{"location":"dragon.bottle.crisp","rgb-string":"#ffc000","marker-color":"#ffc000","marker-symbol":"danger"}},{"type":"Feature","geometry":{"type":"Point","coordinates":[-3.185525,55.943982]},"properties":{"location":"manliness.poem.cliff","rgb-string":"#ffc000","marker-color":"#ffc000","marker-symbol":"danger"}},{"type":"Feature","geometry":{"type":"Point","coordinates":[-3.189764,55.942661]},"properties":{"location":"hooked.shine.third","rgb-string":"#40ff00","marker-color":"#40ff00","marker-symbol":"lighthouse"}},{"type":"Feature","geometry":{"type":"Point","coordinates":[-3.189138,55.944197]},"properties":{"location":"spoon.invest.every","rgb-string":"#40ff00","marker-color":"#40ff00","marker-symbol":"lighthouse"}},{"type":"Feature","geometry":{"type":"Point","coordinates":[-3.191161,55.945976]},"properties":{"location":"simple.rust.audio","rgb-string":"#000000","marker-color":"#000000","marker-symbol":"cross"}},{"type":"Feature","geometry":{"type":"Point","coordinates":[-3.191161,55.943362]},"properties":{"location":"meal.feed.large","rgb-string":"#40ff00","marker-color":"#40ff00","marker-symbol":"lighthouse"}},{"type":"Feature","geometry":{"type":"Point","coordinates":[-3.185621,55.945761]},"properties":{"location":"shed.desire.muddy","rgb-string":"#ff4000","marker-color":"#ff4000","marker-symbol":"danger"}},{"type":"Feature","geometry":{"type":"Point","coordinates":[-3.188608,55.943119]},"properties":{"location":"groups.ideas.script","rgb-string":"#40ff00","marker-color":"#40ff00","marker-symbol":"lighthouse"}},{"type":"Feature","geometry":{"type":"Point","coordinates":[-3.188271,55.944063]},"properties":{"location":"rush.crown.link","rgb-string":"#00ff00","marker-color":"#00ff00","marker-symbol":"lighthouse"}},{"type":"Feature","geometry":{"type":"Point","coordinates":[-3.190727,55.943092]},"properties":{"location":"relate.chill.vest","rgb-string":"#00ff00","marker-color":"#00ff00","marker-symbol":"lighthouse"}},{"type":"Feature","geometry":{"type":"Point","coordinates":[-3.187355,55.943604]},"properties":{"location":"shut.stands.media","rgb-string":"#80ff00","marker-color":"#80ff00","marker-symbol":"lighthouse"}},{"type":"Feature","geometry":{"type":"Point","coordinates":[-3.184513,55.945302]},"properties":{"location":"settle.title.united","rgb-string":"#ff4000","marker-color":"#ff4000","marker-symbol":"danger"}},{"type":"Feature","geometry":{"type":"Point","coordinates":[-3.187789,55.944386]},"properties":{"location":"thank.salsa.brain","rgb-string":"#40ff00","marker-color":"#40ff00","marker-symbol":"lighthouse"}},{"type":"Feature","geometry":{"type":"Point","coordinates":[-3.18697,55.942688]},"properties":{"location":"strut.river.surely","rgb-string":"#ff4000","marker-color":"#ff4000","marker-symbol":"danger"}},{"type":"Feature","geometry":{"type":"Point","coordinates":[-3.189812,55.94409]},"properties":{"location":"cliff.asleep.wedge","rgb-string":"#40ff00","marker-color":"#40ff00","marker-symbol":"lighthouse"}},{"type":"Feature","geometry":{"type":"Point","coordinates":[-3.188897,55.945707]},"properties":{"location":"stops.else.chats","rgb-string":"#ff0000","marker-color":"#ff0000","marker-symbol":"danger"}},{"type":"Feature","geometry":{"type":"Point","coordinates":[-3.186103,55.944251]},"properties":{"location":"organs.shape.fantastic","rgb-string":"#ff4000","marker-color":"#ff4000","marker-symbol":"danger"}},{"type":"Feature","geometry":{"type":"Point","coordinates":[-3.191161,55.942742]},"properties":{"location":"along.spill.limp","rgb-string":"#00ff00","marker-color":"#00ff00","marker-symbol":"lighthouse"}},{"type":"Feature","geometry":{"type":"Point","coordinates":[-3.190294,55.943712]},"properties":{"location":"sculpture.shot.melon","rgb-string":"#40ff00","marker-color":"#40ff00","marker-symbol":"lighthouse"}},{"type":"Feature","geometry":{"type":"Point","coordinates":[-3.188704,55.943389]},"properties":{"location":"system.speak.guard","rgb-string":"#00ff00","marker-color":"#00ff00","marker-symbol":"lighthouse"}},{"type":"Feature","geometry":{"type":"Point","coordinates":[-3.191113,55.943901]},"properties":{"location":"spicy.bunch.shady","rgb-string":"#00ff00","marker-color":"#00ff00","marker-symbol":"lighthouse"}},{"type":"Feature","geometry":{"type":"Point","coordinates":[-3.184899,55.944736]},"properties":{"location":"slide.leads.stores","rgb-string":"#000000","marker-color":"#000000","marker-symbol":"cross"}},{"type":"Feature","geometry":{"type":"Point","coordinates":[-3.188126,55.943793]},"properties":{"location":"cubs.trucks.help","rgb-string":"#40ff00","marker-color":"#40ff00","marker-symbol":"lighthouse"}},{"type":"Feature","geometry":{"type":"Point","coordinates":[-3.185814,55.94603]},"properties":{"location":"renew.slows.basket","rgb-string":"#ff0000","marker-color":"#ff0000","marker-symbol":"danger"}},{"type":"Feature","geometry":{"type":"Point","coordinates":[-3.191161,55.943065]},"properties":{"location":"else.urban.museum","rgb-string":"#00ff00","marker-color":"#00ff00","marker-symbol":"lighthouse"}},{"type":"Feature","geometry":{"type":"LineString","coordinates":[[-3.188396,55.944425],[-3.1882934,55.9441431],[-3.1881434,55.9438833],[-3.1879506,55.9441131],[-3.1878006,55.9443729],[-3.1875408,55.9442229],[-3.1872588,55.9441203],[-3.186999,55.9439703],[-3.1871919,55.9437405],[-3.1874217,55.9435476],[-3.1872717,55.9432878],[-3.1871217,55.943028],[-3.1870191,55.9427461],[-3.1868262,55.9429759],[-3.1866334,55.9432058],[-3.1867834,55.9434656],[-3.1865236,55.9436156],[-3.1862638,55.9437656],[-3.186004,55.9439156],[-3.1861066,55.9441975],[-3.1858247,55.9440949],[-3.1855428,55.9439923],[-3.1853928,55.9442521],[-3.1852428,55.9445119],[-3.184983,55.9446619],[-3.1847901,55.9448917],[-3.1846401,55.9451515],[-3.1848999,55.9453015],[-3.1851597,55.9454515],[-3.1854196,55.9456015],[-3.1856494,55.9457943],[-3.1857994,55.9460541],[-3.1860592,55.9459041],[-3.186319,55.9457541],[-3.186469,55.9454943],[-3.1866618,55.9452645],[-3.1869437,55.9453671],[-3.1871366,55.9455969],[-3.1874366,55.9455969],[-3.187732,55.9455448],[-3.188032,55.9455448],[-3.1883274,55.9454927],[-3.1886094,55.9455954],[-3.1888913,55.945698],[-3.1889434,55.9454025],[-3.1889955,55.9451071],[-3.1890475,55.9448116],[-3.1890996,55.9445162],[-3.1891517,55.9442207],[-3.1894472,55.9441687],[-3.1897426,55.9441166],[-3.1899724,55.9439237],[-3.1902322,55.9437737],[-3.1904251,55.9435439],[-3.1905751,55.9432841],[-3.1907679,55.9430543],[-3.1910679,55.9430543],[-3.1911705,55.9433362],[-3.1911184,55.9436316],[-3.1911184,55.9439316],[-3.1910663,55.9442271],[-3.1910663,55.9445271],[-3.1910663,55.9448271],[-3.1910663,55.9451271],[-3.1911184,55.9454225],[-3.1911184,55.9457225],[-3.1911705,55.946018],[-3.1911705,55.945718],[-3.1911705,55.945418],[-3.1911705,55.945118],[-3.1911705,55.944818],[-3.1911705,55.944518],[-3.1911705,55.944218],[-3.1911705,55.943918],[-3.1911705,55.943618],[-3.1911705,55.943318],[-3.1911705,55.943018],[-3.1911705,55.942718],[-3.1908705,55.942718],[-3.1905705,55.942718],[-3.1902705,55.942718],[-3.1899751,55.9426659],[-3.1896751,55.9426659],[-3.1897777,55.9429478],[-3.1894958,55.9430504],[-3.1892139,55.943153],[-3.188932,55.9432556],[-3.1886722,55.9434056],[-3.1886201,55.9431102],[-3.1883246,55.9431622],[-3.1880246,55.9431622],[-3.1877292,55.9432143],[-3.1874292,55.9432143],[-3.1871337,55.9432664],[-3.1868337,55.9432664],[-3.1866039,55.9434593],[-3.1863039,55.9434593],[-3.1860039,55.9434593],[-3.1857039,55.9434593],[-3.1854039,55.9434593],[-3.1851039,55.9434593],[-3.1853637,55.9436093],[-3.1856456,55.9437119],[-3.1859054,55.9438619],[-3.1861873,55.9439645],[-3.1864472,55.9441145],[-3.1867426,55.9440624],[-3.187038,55.9440103],[-3.187188,55.9442701],[-3.187338,55.9445299],[-3.1876335,55.9444778],[-3.1879335,55.9444778],[-3.1882289,55.9444257]]},"properties":{}}]}
