{"type":"FeatureCollection","features":[{"type":"Feature","geometry":{"type":"Point","coordinates":[-3.189234,55.943012]},"properties":{"location":"region.passes.pencil","rgb-string":"#80ff00","marker-color":"#80ff00","marker-symbol":"lighthouse"}},{"type":"Feature","geometry":{"type":"Point","coordinates":[-3.190197,55.943443]},"properties":{"location":"arts.dish.scarcely","rgb-string":"#40ff00","marker-color":"#40ff00","marker-symbol":"lighthouse"}},{"type":"Feature","geometry":{"type":"Point","coordinates":[-3.190727,55.943092]},"properties":{"location":"relate.chill.vest","rgb-string":"#00ff00","marker-color":"#00ff00","marker-symbol":"lighthouse"}},{"type":"Feature","geometry":{"type":"Point","coordinates":[-3.186922,55.945437]},"properties":{"location":"spent.spoon.bolt","rgb-string":"#ffc000","marker-color":"#ffc000","marker-symbol":"danger"}},{"type":"Feature","geometry":{"type":"Point","coordinates":[-3.187693,55.942769]},"properties":{"location":"panic.squad.danger","rgb-string":"#ffc000","marker-color":"#ffc000","marker-symbol":"danger"}},{"type":"Feature","geometry":{"type":"Point","coordinates":[-3.184899,55.944736]},"properties":{"location":"slide.leads.stores","rgb-string":"#000000","marker-color":"#000000","marker-symbol":"cross"}},{"type":"Feature","geometry":{"type":"Point","coordinates":[-3.191016,55.944979]},"properties":{"location":"shapes.sheep.nature","rgb-string":"#ff8000","marker-color":"#ff8000","marker-symbol":"danger"}},{"type":"Feature","geometry":{"type":"Point","coordinates":[-3.1875,55.943874]},"properties":{"location":"begins.spider.drips","rgb-string":"#80ff00","marker-color":"#80ff00","marker-symbol":"lighthouse"}},{"type":"Feature","geometry":{"type":"Point","coordinates":[-3.189523,55.943551]},"properties":{"location":"cars.attend.hotels","rgb-string":"#40ff00","marker-color":"#40ff00","marker-symbol":"lighthouse"}},{"type":"Feature","geometry":{"type":"Point","coordinates":[-3.186392,55.944656]},"properties":{"location":"rated.fired.crowds","rgb-string":"#ff4000","marker-color":"#ff4000","marker-symbol":"danger"}},{"type":"Feature","geometry":{"type":"Point","coordinates":[-3.191113,55.943631]},"properties":{"location":"loaf.cheer.slave","rgb-string":"#00ff00","marker-color":"#00ff00","marker-symbol":"lighthouse"}},{"type":"Feature","geometry":{"type":"Point","coordinates":[-3.188849,55.943658]},"properties":{"location":"labels.hotels.alert","rgb-string":"#40ff00","marker-color":"#40ff00","marker-symbol":"lighthouse"}},{"type":"Feature","geometry":{"type":"Point","coordinates":[-3.186296,55.945761]},"properties":{"location":"posts.kicked.universally","rgb-string":"#ff4000","marker-color":"#ff4000","marker-symbol":"danger"}},{"type":"Feature","geometry":{"type":"Point","coordinates":[-3.185814,55.94603]},"properties":{"location":"renew.slows.basket","rgb-string":"#ff8000","marker-color":"#ff8000","marker-symbol":"danger"}},{"type":"Feature","geometry":{"type":"Point","coordinates":[-3.189908,55.942904]},"properties":{"location":"second.launch.miles","rgb-string":"#00ff00","marker-color":"#00ff00","marker-symbol":"lighthouse"}},{"type":"Feature","geometry":{"type":"Point","coordinates":[-3.191113,55.943901]},"properties":{"location":"spicy.bunch.shady","rgb-string":"#00ff00","marker-color":"#00ff00","marker-symbol":"lighthouse"}},{"type":"Feature","geometry":{"type":"Point","coordinates":[-3.187645,55.944143]},"properties":{"location":"bound.ends.matter","rgb-string":"#40ff00","marker-color":"#40ff00","marker-symbol":"lighthouse"}},{"type":"Feature","geometry":{"type":"Point","coordinates":[-3.190438,55.943982]},"properties":{"location":"pump.wheels.hulk","rgb-string":"#000000","marker-color":"#000000","marker-symbol":"cross"}},{"type":"Feature","geometry":{"type":"Point","coordinates":[-3.184465,55.944952]},"properties":{"location":"sports.topic.clocks","rgb-string":"#ffc000","marker-color":"#ffc000","marker-symbol":"danger"}},{"type":"Feature","geometry":{"type":"Point","coordinates":[-3.184513,55.945302]},"properties":{"location":"settle.title.united","rgb-string":"#ff4000","marker-color":"#ff4000","marker-symbol":"danger"}},{"type":"Feature","geometry":{"type":"Point","coordinates":[-3.184658,55.943874]},"properties":{"location":"rider.mile.lime","rgb-string":"#ff8000","marker-color":"#ff8000","marker-symbol":"danger"}},{"type":"Feature","geometry":{"type":"Point","coordinates":[-3.186729,55.945168]},"properties":{"location":"dragon.bottle.crisp","rgb-string":"#ffc000","marker-color":"#ffc000","marker-symbol":"danger"}},{"type":"Feature","geometry":{"type":"Point","coordinates":[-3.188704,55.945168]},"properties":{"location":"rooms.lamp.teach","rgb-string":"#ff8000","marker-color":"#ff8000","marker-symbol":"danger"}},{"type":"Feature","geometry":{"type":"Point","coordinates":[-3.187018,55.942877]},"properties":{"location":"valve.elaborate.fortunate","rgb-string":"#ff8000","marker-color":"#ff8000","marker-symbol":"danger"}},{"type":"Feature","geometry":{"type":"Point","coordinates":[-3.190294,55.943712]},"properties":{"location":"sculpture.shot.melon","rgb-string":"#40ff00","marker-color":"#40ff00","marker-symbol":"lighthouse"}},{"type":"Feature","geometry":{"type":"Point","coordinates":[-3.191161,55.945976]},"properties":{"location":"simple.rust.audio","rgb-string":"#ffc000","marker-color":"#ffc000","marker-symbol":"danger"}},{"type":"Feature","geometry":{"type":"Point","coordinates":[-3.18567,55.944359]},"properties":{"location":"atoms.vanish.foods","rgb-string":"#ff8000","marker-color":"#ff8000","marker-symbol":"danger"}},{"type":"Feature","geometry":{"type":"Point","coordinates":[-3.187307,55.944494]},"properties":{"location":"only.fairly.rift","rgb-string":"#000000","marker-color":"#000000","marker-symbol":"cross"}},{"type":"Feature","geometry":{"type":"Point","coordinates":[-3.187982,55.943497]},"properties":{"location":"scare.cubs.resort","rgb-string":"#000000","marker-color":"#000000","marker-symbol":"cross"}},{"type":"Feature","geometry":{"type":"Point","coordinates":[-3.185621,55.943065]},"properties":{"location":"toned.deflection.bland","rgb-string":"#ffc000","marker-color":"#ffc000","marker-symbol":"danger"}},{"type":"Feature","geometry":{"type":"Point","coordinates":[-3.18933,55.945653]},"properties":{"location":"museum.spicy.horns","rgb-string":"#ff0000","marker-color":"#ff0000","marker-symbol":"danger"}},{"type":"Feature","geometry":{"type":"Point","coordinates":[-3.188897,55.945707]},"properties":{"location":"stops.else.chats","rgb-string":"#ff0000","marker-color":"#ff0000","marker-symbol":"danger"}},{"type":"Feature","geometry":{"type":"Point","coordinates":[-3.188463,55.945761]},"properties":{"location":"bend.tubes.chops","rgb-string":"#ff8000","marker-color":"#ff8000","marker-symbol":"danger"}},{"type":"Feature","geometry":{"type":"LineString","coordinates":[[-3.188396,55.944425],[-3.1881141,55.9443224],[-3.1878322,55.9442198],[-3.1875503,55.9441172],[-3.1874982,55.9438217],[-3.187758,55.9436717],[-3.1879878,55.9434789],[-3.1878852,55.943197],[-3.1877826,55.9429151],[-3.1874826,55.9429151],[-3.1871826,55.9429151],[-3.1868871,55.9429672],[-3.1865871,55.9429672],[-3.1862917,55.9430193],[-3.1859917,55.9430193],[-3.1856963,55.9430714],[-3.1856963,55.9433714],[-3.1856963,55.9436714],[-3.1856963,55.9439714],[-3.1856963,55.9442714],[-3.1859561,55.9444214],[-3.1862159,55.9445714],[-3.1864087,55.9448012],[-3.1866016,55.945031],[-3.1867944,55.9452608],[-3.1869872,55.9454906],[-3.1867053,55.9455932],[-3.1864234,55.9456958],[-3.1861636,55.9458458],[-3.1859038,55.9459958],[-3.185644,55.9458458],[-3.1853842,55.9456958],[-3.1851023,55.9455932],[-3.1848425,55.9454432],[-3.1845606,55.9453406],[-3.1845085,55.9450452],[-3.1847383,55.9448523],[-3.1847383,55.9445523],[-3.1846862,55.9442569],[-3.1846862,55.9439569],[-3.1849816,55.944009],[-3.1852771,55.9440611],[-3.1855725,55.9441132],[-3.1858679,55.9441653],[-3.1861634,55.9442174],[-3.1864232,55.9440674],[-3.1867232,55.9440674],[-3.1870186,55.9440153],[-3.1871686,55.9442751],[-3.1873186,55.9445349],[-3.1876186,55.9445349],[-3.1878784,55.9446849],[-3.1881383,55.9448349],[-3.1883981,55.9449849],[-3.1886579,55.9451349],[-3.1887605,55.9454168],[-3.1889105,55.9456766],[-3.1892105,55.9456766],[-3.188915,55.9457287],[-3.188615,55.9457287],[-3.1886671,55.9454333],[-3.1887192,55.9451378],[-3.1887713,55.9448424],[-3.1887713,55.9445424],[-3.1888234,55.9442469],[-3.1888234,55.9439469],[-3.1888755,55.9436515],[-3.1891709,55.9435994],[-3.1894664,55.9435473],[-3.1897618,55.9434952],[-3.1900573,55.9434431],[-3.1902501,55.9436729],[-3.1904001,55.9439327],[-3.1907001,55.9439327],[-3.1910001,55.9439327],[-3.1911027,55.9436508],[-3.1909527,55.943391],[-3.1907599,55.9431612],[-3.190478,55.9430586],[-3.1901961,55.942956],[-3.1899006,55.9429039],[-3.1900506,55.9431637],[-3.1902006,55.9434235],[-3.1903506,55.9436833],[-3.1905006,55.9439431],[-3.1906506,55.9442029],[-3.1908006,55.9444627],[-3.1909032,55.9447447],[-3.1910532,55.9450045],[-3.1911053,55.9452999],[-3.1911053,55.9455999],[-3.1911574,55.9458953],[-3.1910074,55.9456355],[-3.1908574,55.9453757],[-3.1907074,55.9451159],[-3.1905146,55.9448861],[-3.1903646,55.9446263],[-3.1901717,55.9443965],[-3.1900217,55.9441367],[-3.1898289,55.9439069],[-3.1896789,55.9436471],[-3.1894861,55.9434172],[-3.1893361,55.9431574],[-3.1891432,55.9433873],[-3.1889504,55.9436171],[-3.1888004,55.9438769],[-3.1886076,55.9441067],[-3.1884576,55.9443665]]},"properties":{}}]}
