{"type":"FeatureCollection","features":[{"type":"Feature","geometry":{"type":"Point","coordinates":[-3.186296,55.945761]},"properties":{"location":"posts.kicked.universally","rgb-string":"#ff8000","marker-color":"#ff8000","marker-symbol":"danger"}},{"type":"Feature","geometry":{"type":"Point","coordinates":[-3.188849,55.943658]},"properties":{"location":"labels.hotels.alert","rgb-string":"#00ff00","marker-color":"#00ff00","marker-symbol":"lighthouse"}},{"type":"Feature","geometry":{"type":"Point","coordinates":[-3.190583,55.942823]},"properties":{"location":"tonic.bliss.cove","rgb-string":"#40ff00","marker-color":"#40ff00","marker-symbol":"lighthouse"}},{"type":"Feature","geometry":{"type":"Point","coordinates":[-3.18514,55.943685]},"properties":{"location":"hello.love.keys","rgb-string":"#ff8000","marker-color":"#ff8000","marker-symbol":"danger"}},{"type":"Feature","geometry":{"type":"Point","coordinates":[-3.18986,55.945491]},"properties":{"location":"turkey.limit.ramp","rgb-string":"#000000","marker-color":"#000000","marker-symbol":"cross"}},{"type":"Feature","geometry":{"type":"Point","coordinates":[-3.186922,55.945437]},"properties":{"location":"spent.spoon.bolt","rgb-string":"#ffc000","marker-color":"#ffc000","marker-symbol":"danger"}},{"type":"Feature","geometry":{"type":"Point","coordinates":[-3.191257,55.945599]},"properties":{"location":"skins.engage.best","rgb-string":"#ff4000","marker-color":"#ff4000","marker-symbol":"danger"}},{"type":"Feature","geometry":{"type":"Point","coordinates":[-3.189812,55.94409]},"properties":{"location":"cliff.asleep.wedge","rgb-string":"#40ff00","marker-color":"#40ff00","marker-symbol":"lighthouse"}},{"type":"Feature","geometry":{"type":"Point","coordinates":[-3.185525,55.943982]},"properties":{"location":"manliness.poem.cliff","rgb-string":"#ffc000","marker-color":"#ffc000","marker-symbol":"danger"}},{"type":"Feature","geometry":{"type":"Point","coordinates":[-3.188126,55.943793]},"properties":{"location":"cubs.trucks.help","rgb-string":"#00ff00","marker-color":"#00ff00","marker-symbol":"lighthouse"}},{"type":"Feature","geometry":{"type":"Point","coordinates":[-3.190438,55.943982]},"properties":{"location":"pump.wheels.hulk","rgb-string":"#40ff00","marker-color":"#40ff00","marker-symbol":"lighthouse"}},{"type":"Feature","geometry":{"type":"Point","coordinates":[-3.187693,55.942769]},"properties":{"location":"panic.squad.danger","rgb-string":"#ffc000","marker-color":"#ffc000","marker-symbol":"danger"}},{"type":"Feature","geometry":{"type":"Point","coordinates":[-3.189138,55.944197]},"properties":{"location":"spoon.invest.every","rgb-string":"#40ff00","marker-color":"#40ff00","marker-symbol":"lighthouse"}},{"type":"Feature","geometry":{"type":"Point","coordinates":[-3.189957,55.94603]},"properties":{"location":"love.behind.orchestra","rgb-string":"#ff8000","marker-color":"#ff8000","marker-symbol":"danger"}},{"type":"Feature","geometry":{"type":"Point","coordinates":[-3.189764,55.942661]},"properties":{"location":"hooked.shine.third","rgb-string":"#40ff00","marker-color":"#40ff00","marker-symbol":"lighthouse"}},{"type":"Feature","geometry":{"type":"Point","coordinates":[-3.187018,55.943982]},"properties":{"location":"renew.ears.tend","rgb-string":"#c0ff00","marker-color":"#c0ff00","marker-symbol":"lighthouse"}},{"type":"Feature","geometry":{"type":"Point","coordinates":[-3.185621,55.945761]},"properties":{"location":"shed.desire.muddy","rgb-string":"#ff0000","marker-color":"#ff0000","marker-symbol":"danger"}},{"type":"Feature","geometry":{"type":"Point","coordinates":[-3.190053,55.943173]},"properties":{"location":"shows.fries.lamp","rgb-string":"#40ff00","marker-color":"#40ff00","marker-symbol":"lighthouse"}},{"type":"Feature","geometry":{"type":"Point","coordinates":[-3.189619,55.94382]},"properties":{"location":"burn.spot.across","rgb-string":"#40ff00","marker-color":"#40ff00","marker-symbol":"lighthouse"}},{"type":"Feature","geometry":{"type":"Point","coordinates":[-3.184513,55.945302]},"properties":{"location":"settle.title.united","rgb-string":"#ff0000","marker-color":"#ff0000","marker-symbol":"danger"}},{"type":"Feature","geometry":{"type":"Point","coordinates":[-3.18567,55.944359]},"properties":{"location":"atoms.vanish.foods","rgb-string":"#ff4000","marker-color":"#ff4000","marker-symbol":"danger"}},{"type":"Feature","geometry":{"type":"Point","coordinates":[-3.186537,55.944925]},"properties":{"location":"laws.merit.bleak","rgb-string":"#ff8000","marker-color":"#ff8000","marker-symbol":"danger"}},{"type":"Feature","geometry":{"type":"Point","coordinates":[-3.186729,55.945168]},"properties":{"location":"dragon.bottle.crisp","rgb-string":"#ffc000","marker-color":"#ffc000","marker-symbol":"danger"}},{"type":"Feature","geometry":{"type":"Point","coordinates":[-3.186729,55.945653]},"properties":{"location":"hidden.handle.softly","rgb-string":"#000000","marker-color":"#000000","marker-symbol":"cross"}},{"type":"Feature","geometry":{"type":"Point","coordinates":[-3.188415,55.944305]},"properties":{"location":"trades.rare.cable","rgb-string":"#40ff00","marker-color":"#40ff00","marker-symbol":"lighthouse"}},{"type":"Feature","geometry":{"type":"Point","coordinates":[-3.186777,55.944575]},"properties":{"location":"artist.gets.react","rgb-string":"#ff8000","marker-color":"#ff8000","marker-symbol":"danger"}},{"type":"Feature","geometry":{"type":"Point","coordinates":[-3.185043,55.945868]},"properties":{"location":"rider.aura.bulb","rgb-string":"#ff8000","marker-color":"#ff8000","marker-symbol":"danger"}},{"type":"Feature","geometry":{"type":"Point","coordinates":[-3.191161,55.945976]},"properties":{"location":"simple.rust.audio","rgb-string":"#ff0000","marker-color":"#ff0000","marker-symbol":"danger"}},{"type":"Feature","geometry":{"type":"Point","coordinates":[-3.184899,55.944736]},"properties":{"location":"slide.leads.stores","rgb-string":"#ffc000","marker-color":"#ffc000","marker-symbol":"danger"}},{"type":"Feature","geometry":{"type":"Point","coordinates":[-3.187404,55.945949]},"properties":{"location":"slips.mass.baking","rgb-string":"#ff0000","marker-color":"#ff0000","marker-symbol":"danger"}},{"type":"Feature","geometry":{"type":"Point","coordinates":[-3.189234,55.943012]},"properties":{"location":"region.passes.pencil","rgb-string":"#80ff00","marker-color":"#80ff00","marker-symbol":"lighthouse"}},{"type":"Feature","geometry":{"type":"Point","coordinates":[-3.189186,55.945087]},"properties":{"location":"number.exist.rate","rgb-string":"#80ff00","marker-color":"#80ff00","marker-symbol":"lighthouse"}},{"type":"Feature","geometry":{"type":"Point","coordinates":[-3.191161,55.943362]},"properties":{"location":"meal.feed.large","rgb-string":"#00ff00","marker-color":"#00ff00","marker-symbol":"lighthouse"}},{"type":"Feature","geometry":{"type":"LineString","coordinates":[[-3.188396,55.944425],[-3.1884481,55.9441296],[-3.1882553,55.9438997],[-3.1885372,55.9437971],[-3.1888191,55.9436945],[-3.1889691,55.9439543],[-3.1891191,55.9442141],[-3.1893489,55.9440213],[-3.1895787,55.9438285],[-3.1897715,55.9440583],[-3.190067,55.9440062],[-3.190367,55.9440062],[-3.1902644,55.9437243],[-3.1901618,55.9434424],[-3.1900592,55.9431605],[-3.1899092,55.9429007],[-3.1897592,55.9426409],[-3.1897071,55.9429363],[-3.1894116,55.9429884],[-3.1897071,55.9429363],[-3.1900025,55.9428842],[-3.190298,55.9428321],[-3.190598,55.9428321],[-3.1908278,55.9430249],[-3.1910206,55.9432548],[-3.1910727,55.9435502],[-3.1911248,55.9438456],[-3.1911248,55.9441456],[-3.1911769,55.9444411],[-3.1911769,55.9447411],[-3.191229,55.9450365],[-3.191229,55.9453365],[-3.1912811,55.945632],[-3.1911785,55.9459139],[-3.190883,55.945966],[-3.190583,55.945966],[-3.1902876,55.9460181],[-3.1899876,55.9460181],[-3.1899355,55.9457226],[-3.1898329,55.9454407],[-3.1895731,55.9452907],[-3.1893133,55.9451407],[-3.1890314,55.9452433],[-3.1887495,55.9453459],[-3.1884675,55.9454485],[-3.1882077,55.9455985],[-3.1879258,55.9457011],[-3.187666,55.9458511],[-3.1873841,55.9459537],[-3.1871913,55.9457239],[-3.1869984,55.9454941],[-3.1867386,55.9456441],[-3.1867386,55.9453441],[-3.1865886,55.9450843],[-3.1865365,55.9447889],[-3.1867664,55.944596],[-3.1870618,55.9445439],[-3.1873437,55.9444413],[-3.1871509,55.9442115],[-3.1870009,55.9439517],[-3.1871509,55.9436919],[-3.1873009,55.9434321],[-3.1874509,55.9431723],[-3.1876009,55.9429125],[-3.1873411,55.9430625],[-3.1870812,55.9432125],[-3.1868214,55.9433625],[-3.1865616,55.9435125],[-3.1862797,55.9436151],[-3.1860199,55.9437651],[-3.185738,55.9438677],[-3.1854782,55.9440177],[-3.1856282,55.9442775],[-3.1854354,55.9440477],[-3.1852425,55.9438179],[-3.1851399,55.9440998],[-3.1850373,55.9443817],[-3.1849347,55.9446636],[-3.1847847,55.9449234],[-3.1845919,55.9451532],[-3.1847419,55.945413],[-3.1848919,55.9456728],[-3.1850847,55.9459026],[-3.1853802,55.9458506],[-3.1856621,55.9457479],[-3.1859621,55.9457479],[-3.1862621,55.9457479],[-3.1865219,55.9455979],[-3.1867817,55.9454479],[-3.1870636,55.9455506],[-3.187359,55.9456026],[-3.1876409,55.9455],[-3.1879364,55.9454479],[-3.1882318,55.9453959],[-3.1882839,55.9451004],[-3.188336,55.944805],[-3.1883881,55.9445095]]},"properties":{}}]}
